Nombre,URL,Nombre_limpio,Latitud,Longitud
YACIMIENTO DE CERCADILLA,https://www.turismo-prerromanico.com/home-b__trashed-2__trashed-2__trashed-2-2-2/monumento/yacimiento-de-cercadilla/,YACIMIENTO DE CERCADILLA,37.8878221,-4.7926686
MAUSOLEO DE LA ALBERCA,https://www.turismo-prerromanico.com/home-b__trashed-2__trashed-2__trashed-2-2-2/monumento/mausoleo-de-la-alberca-20130131131858/,MAUSOLEO DE LA ALBERCA,40.4892667,-6.1107228
MAUSOLEO DE CENTCELLES,https://www.turismo-prerromanico.com/home-b__trashed-2__trashed-2__trashed-2-2-2/monumento/mausoleode-centcelles-20130130223328/,MAUSOLEO DE CENTCELLES,41.1558426,1.2259901
VILLA ROMANA LA OLMEDA,https://www.turismo-prerromanico.com/home-b__trashed-2__trashed-2__trashed-2-2-2/monumento/villa-romana-la-olmeda-20141010110757/,VILLA ROMANA LA OLMEDA,42.4817812,-4.7365716
MAUSOLEO DE LAS VEGAS DE SAN ANTONIO,https://www.turismo-prerromanico.com/home-b__trashed-2__trashed-2__trashed-2-2-2/monumento/mausoleo-de-las-vegas-de-san-antonio/,MAUSOLEO DE LAS VEGAS DE SAN ANTONIO,36.171563,-115.1391009
BASILICA DE TORRE DE PALMA,https://www.turismo-prerromanico.com/home-b__trashed-2__trashed-2__trashed-2-2-2/monumento/bas-lica-de-torre-de-palma-20130303014651/,BASILICA DE TORRE DE PALMA,39.5674251,2.6482994
VILLA ROMANA DE CARRANQUE,https://www.turismo-prerromanico.com/home-b__trashed-2__trashed-2__trashed-2-2-2/monumento/villa-romana-de-carranque-20130131192137/,VILLA ROMANA DE CARRANQUE,40.1891904,-3.9509854
EL CASON (JUMILLA),https://www.turismo-prerromanico.com/home-b__trashed-2__trashed-2__trashed-2-2-2/monumento/el-cason-jumilla/,EL CASON,37.8936582,-0.9685315
CONJUNTO ARQUEOLÓGICO DE CÁSTULO,https://www.turismo-prerromanico.com/home-b__trashed-2__trashed-2__trashed-2-2-2/monumento/conjunto-arqueologico-de-castulo/,CONJUNTO ARQUEOLÓGICO DE CÁSTULO,38.0420907,-3.624562
SAN FRUCTUOSO DE FRANCOLÍ (R),https://www.turismo-prerromanico.com/home-b__trashed-2__trashed-2__trashed-2-2-2/monumento/san-frctuoso-de-francol-20130223013254/,SAN FRUCTUOSO DE FRANCOLÍ,41.25484186287495,1.149818812792023
SANTA CECILIA DE ELS ALTAMIRIS,https://www.turismo-prerromanico.com/home-b__trashed-2__trashed-2__trashed-2-2-2/monumento/santa-cecilia-de-els-altamiris/,SANTA CECILIA DE ELS ALTAMIRIS,42.0816634,0.6874323999999999
VILLA FORTUNATUS,https://www.turismo-prerromanico.com/home-b__trashed-2__trashed-2__trashed-2-2-2/monumento/villa-fortunatus/,VILLA FORTUNATUS,41.55630559999999,0.3185556
EL CASTRO DE ARMEA y EL”FORNO DA SANTA” (R),https://www.turismo-prerromanico.com/home-b__trashed-2__trashed-2__trashed-2-2-2/monumento/el-castro-de-armea-y-elforno-da-santa-r/,EL CASTRO DE ARMEA y ELFORNO DA SANTA,42.2459071,-7.793539300000001
VILLA ROMANA DE VERANES,https://www.turismo-prerromanico.com/home-b__trashed-2__trashed-2__trashed-2-2-2/monumento/villa-romana-de-veranes/,VILLA ROMANA DE VERANES,43.4841334,-5.7536831
Casa Basílica de Mérida,https://www.turismo-prerromanico.com/home-b__trashed-2__trashed-2__trashed-2-2-2/monumento/casa-bas-lica-de-mcrida-20130302133322/,Casa Basílica de Mérida,38.9394272,-6.365157
NECRÓPOLIS PALEOCRISTIANA Y BASÍLICA DE SAN FRUCTUOSO,https://www.turismo-prerromanico.com/home-b__trashed-2__trashed-2__trashed-2-2-2/monumento/necropolis-paleocristiana-y-basilica-de-san-fructuoso/,NECRÓPOLIS PALEOCRISTIANA Y BASÍLICA DE SAN FRUCTUOSO,41.115728,1.2387255
BASÍLICA Y CONJUNTO DEL PARQUE CENTRAL DE TARRAGONA,https://www.turismo-prerromanico.com/home-b__trashed-2__trashed-2__trashed-2-2-2/monumento/basilica-y-conjunto-del-parque-central-de-tarragona/,BASÍLICA Y CONJUNTO DEL PARQUE CENTRAL DE TARRAGONA,41.1188827,1.2444909
Basílica Paleocristiana de Barcelona,https://www.turismo-prerromanico.com/home-b__trashed-2__trashed-2__trashed-2-2-2/monumento/baslica-de-barcelona-20130223013847/,Basílica Paleocristiana de Barcelona,41.3873974,2.168568
BASILICA PALEOCRISTIANA DE AMPURIAS,https://www.turismo-prerromanico.com/home-b__trashed-2__trashed-2__trashed-2-2-2/monumento/cella-memoriae-de-ampurias-20130223022909/,BASILICA PALEOCRISTIANA DE AMPURIAS,42.1340179,3.112428
BASILICA DE SON BOU,https://www.turismo-prerromanico.com/home-b__trashed-2__trashed-2__trashed-2-2-2/monumento/bas-lica-de-son-bou-20130302135608/,BASILICA DE SON BOU,39.8961153,4.0789287
VILLA ROMANA DE LA COCOSA,https://www.turismo-prerromanico.com/home-b__trashed-2__trashed-2__trashed-2-2-2/monumento/bas-lica-de-la-cocosa-20130302210925/,VILLA ROMANA DE LA COCOSA,38.75288080000001,-7.0176026
Matyrium de Santa Coloma,https://www.turismo-prerromanico.com/home-b__trashed-2__trashed-2__trashed-2-2-2/monumento/matirium-de-santa-coloma-20130303023116/,Matyrium de Santa Coloma,41.450876,2.2110636
BASILICA PALEOCRISTIANA DE GERENA,https://www.turismo-prerromanico.com/home-b__trashed-2__trashed-2__trashed-2-2-2/monumento/basilica-paleocristiana-de-gerena/,BASILICA PALEOCRISTIANA DE GERENA,37.5286338,-6.1487892
BASILICA DE SANTA EULALIA,https://www.turismo-prerromanico.com/home-b__trashed-2__trashed-2__trashed-2-2-2/monumento/basilica-de-santa-eulalia/,BASILICA DE SANTA EULALIA,38.9206364,-6.3419092
BASÍLICAS SUBURBANAS DE AMPURIAS,https://www.turismo-prerromanico.com/home-b__trashed-2__trashed-2__trashed-2-2-2/monumento/basilicas-suburbanas-de-ampurias/,BASÍLICAS SUBURBANAS DE AMPURIAS,42.1340179,3.112428
BASÍLICA DE SON PERETÓ,https://www.turismo-prerromanico.com/home-b__trashed-2__trashed-2__trashed-2-2-2/monumento/bas-lica-de-son-peret-20130302142723/,BASÍLICA DE SON PERETÓ,39.5964035,3.2651365
BASÍLICA DE FORNÀS DE TORELLÓ,https://www.turismo-prerromanico.com/home-b__trashed-2__trashed-2__trashed-2-2-2/monumento/bas-lica-de-torell-20130302140747/,BASÍLICA DE FORNÀS DE TORELLÓ,39.8837265,4.2219643
MONASTERIO DE SAN CUGAT DEL VALLÉS,https://www.turismo-prerromanico.com/home-b__trashed-2__trashed-2__trashed-2-2-2/monumento/san-cugat-del-valls-r-20141008121110/,MONASTERIO DE SAN CUGAT DEL VALLÉS,41.4737723,2.0852901
CRIPTA DE SAN VICENTE,https://www.turismo-prerromanico.com/home-b__trashed-2__trashed-2__trashed-2-2-2/monumento/cripta-de-san-vicente/,CRIPTA DE SAN VICENTE,39.4758327,-0.3741716
IGLESIA MARTIRIAL DE MARIALBA,https://www.turismo-prerromanico.com/home-b__trashed-2__trashed-2__trashed-2-2-2/monumento/iglesia-martirial-de-marialba-20130201173157/,IGLESIA MARTIRIAL DE MARIALBA,42.5354201,-5.5436137
BASILICA DE LA ISLA DEL REY,https://www.turismo-prerromanico.com/home-b__trashed-2__trashed-2__trashed-2-2-2/monumento/bas-lica-de-illetas-del-rey-20130302141608/,BASILICA DE LA ISLA DEL REY,39.8866449,4.288304999999999
NECRÓPOLIS DE CASTILTIERRA,https://www.turismo-prerromanico.com/home-b__trashed-2__trashed-2__trashed-2-2-2/monumento/necrpolis-de-castiltierra-20160528200628/,NECRÓPOLIS DE CASTILTIERRA,41.3853635,-3.5323281
NECRÓPOLIS DE EL CARPIO DE TAJO,https://www.turismo-prerromanico.com/home-b__trashed-2__trashed-2__trashed-2-2-2/monumento/necrpolis-de-el-carpio-de-tajo-20160523134718/,NECRÓPOLIS DE EL CARPIO DE TAJO,39.8881323,-4.456805
NECRÓPOLIS DE CACERA DE LAS RANAS,https://www.turismo-prerromanico.com/home-b__trashed-2__trashed-2__trashed-2-2-2/monumento/necrpolis-de-cacera-de-las-ranas-20160529000252/,NECRÓPOLIS DE CACERA DE LAS RANAS,,
NECRÓPOLIS DE HERRERA DE PISUERGA,https://www.turismo-prerromanico.com/home-b__trashed-2__trashed-2__trashed-2-2-2/monumento/necrpolis-de-herrera-de-pisuerga-20160529214350/,NECRÓPOLIS DE HERRERA DE PISUERGA,42.5953655,-4.3321114
NECRÓPOLIS DE DURATÓN,https://www.turismo-prerromanico.com/home-b__trashed-2__trashed-2__trashed-2-2-2/monumento/necrpolis-de-duratn-20160531193554/,NECRÓPOLIS DE DURATÓN,41.2881664,-3.6824085
SAN MARTIN DE AMPURIAS,https://www.turismo-prerromanico.com/home-b__trashed-2__trashed-2__trashed-2-2-2/monumento/san-marti-de-ampurias/,SAN MARTIN DE AMPURIAS,42.139886,3.1179122
BASÍLICA DE CASA HERRERA,https://www.turismo-prerromanico.com/home-b__trashed-2__trashed-2__trashed-2-2-2/monumento/bas-lica-de-casa-herrera-20130302203310/,BASÍLICA DE CASA HERRERA,38.9610551,-6.2945474
BASÍLICA DE CABEZA DE GRIEGO,https://www.turismo-prerromanico.com/home-b__trashed-2__trashed-2__trashed-2-2-2/monumento/baslica-de-cabeza-de-griego-20130211115501/,BASÍLICA DE CABEZA DE GRIEGO,39.8918582,-2.8084337
MONASTERIO DE PLA DE SES FIGUERES,https://www.turismo-prerromanico.com/home-b__trashed-2__trashed-2__trashed-2-2-2/monumento/monasterio-de-pla-de-ses-figueres/,MONASTERIO DE PLA DE SES FIGUERES,,
COMPLEJO RELIGIOSO CRISTIANO DE MÉRTOLA,https://www.turismo-prerromanico.com/home-b__trashed-2__trashed-2__trashed-2-2-2/monumento/complejo-religioso-cristiano-de-mertola/,COMPLEJO RELIGIOSO CRISTIANO DE MÉRTOLA,37.6415148,-7.6606665
SANTA MARÍA DE LOS ARCOS,https://www.turismo-prerromanico.com/home-b__trashed-2__trashed-2__trashed-2-2-2/monumento/santa-mara-de-los-arcos-20130211130235/,SANTA MARÍA DE LOS ARCOS,42.4029005,-2.710961
Puerta de Sevilla,https://www.turismo-prerromanico.com/home-b__trashed-2__trashed-2__trashed-2-2-2/monumento/puerta-de-sevilla-20130303021658/,Puerta de Sevilla,37.8752804,-4.7856268
BASÍLICA DE VEGA DE MAR,https://www.turismo-prerromanico.com/home-b__trashed-2__trashed-2__trashed-2-2-2/monumento/baslica-de-vega-de-mar-20130209182237/,BASÍLICA DE VEGA DE MAR,36.4722281,-4.9904246
BASILICA DE LA ALCUDIA,https://www.turismo-prerromanico.com/home-b__trashed-2__trashed-2__trashed-2-2-2/monumento/bas-lica-de-elche-20130302201748/,BASILICA DE LA ALCUDIA,39.1974843,-0.5045206
YACIMIENTO DE EL BOVALAR,https://www.turismo-prerromanico.com/home-b__trashed-2__trashed-2__trashed-2-2-2/monumento/69081/,YACIMIENTO DE EL BOVALAR,41.4549684,0.4270697
CENTRO ARQUEOLOGICO DE L’ALMOINA,https://www.turismo-prerromanico.com/home-b__trashed-2__trashed-2__trashed-2-2-2/monumento/centro-arqueologico-de-lalmoina/,CENTRO ARQUEOLOGICO DE LALMOINA,39.4762551,-0.3741593
MEZQUITA DE CÓRDOBA. COMPLEJO DE SAN VICENTE MÁRTIR,https://www.turismo-prerromanico.com/home-b__trashed-2__trashed-2__trashed-2-2-2/monumento/mezquita-de-cordoba-complejo-de-san-vicente-martir/,MEZQUITA DE CÓRDOBA COMPLEJO DE SAN VICENTE MÁRTIR,37.8789056,-4.7793869
SANTA MARGARIDA DEL PRIORAT DE SANT GENÍS DE ROCAFORT,https://www.turismo-prerromanico.com/home-b__trashed-2__trashed-2__trashed-2-2-2/monumento/santa-margarida-del-priorat-de-sant-genis-de-rocafort/,SANTA MARGARIDA DEL PRIORAT DE SANT GENÍS DE ROCAFORT,41.4653928,1.923516
BAPTISTERIO DE GABIA GRANDE,https://www.turismo-prerromanico.com/home-b__trashed-2__trashed-2__trashed-2-2-2/monumento/20130209171107/,BAPTISTERIO DE GABIA GRANDE,37.136389,-3.669167
IDANHA-A-VELHA,https://www.turismo-prerromanico.com/home-b__trashed-2__trashed-2__trashed-2-2-2/monumento/idanha-a-velha/,IDANHAAVELHA,40.0014856,-7.1520926
YACIMIENTO ARQUEOLÓGICO DE EL MONASTIL,https://www.turismo-prerromanico.com/home-b__trashed-2__trashed-2__trashed-2-2-2/monumento/yacimiento-arqueologici-de-el-monastil/,YACIMIENTO ARQUEOLÓGICO DE EL MONASTIL,38.4937951,-0.7962187
VALENCIA LA VELLA,https://www.turismo-prerromanico.com/home-b__trashed-2__trashed-2__trashed-2-2-2/monumento/valencia-la-vella/,VALENCIA LA VELLA,39.5300944,-0.5317525
BASILICA DE ALGEZARES,https://www.turismo-prerromanico.com/home-b__trashed-2__trashed-2__trashed-2-2-2/monumento/bas-lica-de-algezares-20130302144011/,BASILICA DE ALGEZARES,37.9465271,-1.1053511
ERMITA DE SANTA MARÍA DE VALCAMINO,https://www.turismo-prerromanico.com/home-b__trashed-2__trashed-2__trashed-2-2-2/monumento/ermita-de-santa-mara-de-valcamino-20160317212456/,ERMITA DE SANTA MARÍA DE VALCAMINO,42.1244833,-3.4730483
CARTAGHO SPARTARIA,https://www.turismo-prerromanico.com/home-b__trashed-2__trashed-2__trashed-2-2-2/monumento/cartagho-spartaria/,CARTAGHO SPARTARIA,37.6253022,-0.9972219
RECÓPOLIS,https://www.turismo-prerromanico.com/home-b__trashed-2__trashed-2__trashed-2-2-2/monumento/recpolis-20130212105615/,RECÓPOLIS,40.3218763,-2.8893961
SANTA EULALIA DE BÓVEDA,https://www.turismo-prerromanico.com/home-b__trashed-2__trashed-2__trashed-2-2-2/monumento/santa-eulalia-de-bveda-20130209014644/,SANTA EULALIA DE BÓVEDA,42.9801861,-7.686046999999999
BASÍLICA DE EIO (Tolmo de Minateda),https://www.turismo-prerromanico.com/home-b__trashed-2__trashed-2__trashed-2-2-2/monumento/baslica-de-eio-tolmo-de-minateda-20130211190925/,BASÍLICA DE EIO,38.4754877,-1.6055986
BASILICA DEL ANFITEATRO DE TARRAGONA,https://www.turismo-prerromanico.com/home-b__trashed-2__trashed-2__trashed-2-2-2/monumento/basilica-del-anfiteatro-de-tarragona/,BASILICA DEL ANFITEATRO DE TARRAGONA,41.1145526,1.2588308
XENODOQUIO DE MÉRIDA,https://www.turismo-prerromanico.com/home-b__trashed-2__trashed-2__trashed-2-2-2/monumento/xenodoquio-de-merida/,XENODOQUIO DE MÉRIDA,38.9394272,-6.365157
YACIMIENTO ARQUEOLÓGICO DE ORETO-ZUQUECA,https://www.turismo-prerromanico.com/home-b__trashed-2__trashed-2__trashed-2-2-2/monumento/yacimiento-arqueologico-de-oreto-zuqueca/,YACIMIENTO ARQUEOLÓGICO DE ORETOZUQUECA,38.7597647,-3.7182634
BASÍLICA DE ALCONÉTAR,https://www.turismo-prerromanico.com/home-b__trashed-2__trashed-2__trashed-2-2-2/monumento/basilica-de-alconetar/,BASÍLICA DE ALCONÉTAR,,
BASILICA DEL GERMO,https://www.turismo-prerromanico.com/home-b__trashed-2__trashed-2__trashed-2-2-2/monumento/bas-lica-de-el-germo-20130302204138/,BASILICA DEL GERMO,41.89759859999999,12.4984084
NECROPOLIS DE LOS REMEDIOS,https://www.turismo-prerromanico.com/home-b__trashed-2__trashed-2__trashed-2-2-2/monumento/necropolis-de-los-remedios/,NECROPOLIS DE LOS REMEDIOS,40.7031639,-3.7692456
SANTA MARIA DE MIJANGOS,https://www.turismo-prerromanico.com/home-b__trashed-2__trashed-2__trashed-2-2-2/monumento/santa-mar-a-de-mijangos-20130303111000/,SANTA MARIA DE MIJANGOS,42.821275,-3.419374
YACIMIENTO ARQUEOLÓGICO DE NAVALVILLAR Y NAVALAHIJA,https://www.turismo-prerromanico.com/home-b__trashed-2__trashed-2__trashed-2-2-2/monumento/yacimiento-arqueologico-de-navalvillar-y-navalahija/,YACIMIENTO ARQUEOLÓGICO DE NAVALVILLAR Y NAVALAHIJA,40.7007046,-3.7507522
IGLESIA VISIGODA DE MORÓN DE LA FRONTERA,https://www.turismo-prerromanico.com/home-b__trashed-2__trashed-2__trashed-2-2-2/monumento/iglesia-visigoda-de-moron-de-la-frontera/,IGLESIA VISIGODA DE MORÓN DE LA FRONTERA,37.1211901,-5.4541928
Puente de Pinos,https://www.turismo-prerromanico.com/home-b__trashed-2__trashed-2__trashed-2-2-2/monumento/puente-de-pinos-20130303015924/,Puente de Pinos,37.2514515,-3.7496132
SAN JUAN BAUTISTA DE BURGUILLOS DEL CERRO,https://www.turismo-prerromanico.com/home-b__trashed-2__trashed-2__trashed-2-2-2/monumento/san-juan-bautista-de-burguillos-del-cerro/,SAN JUAN BAUTISTA DE BURGUILLOS DEL CERRO,38.3800832,-6.590351399999999
YACIMIENTO DE GUARRAZAR,https://www.turismo-prerromanico.com/home-b__trashed-2__trashed-2__trashed-2-2-2/monumento/yacimiento-de-guarrazar-20151123123931/,YACIMIENTO DE GUARRAZAR,39.814739,-4.118818
MUSEO DE ARTE VISIGODO DE MÉRIDA,https://www.turismo-prerromanico.com/home-b__trashed-2__trashed-2__trashed-2-2-2/monumento/museo-de-arte-visigodo-de-merida/,MUSEO DE ARTE VISIGODO DE MÉRIDA,38.9394272,-6.365157
SAN JUAN BAUTISTA DE BARBADILLO DEL MERCADO (R),https://www.turismo-prerromanico.com/home-b__trashed-2__trashed-2__trashed-2-2-2/monumento/san-juan-bautista-de-barbadillo-del-mercado-r/,SAN JUAN BAUTISTA DE BARBADILLO DEL MERCADO,42.0332625,-3.3593216
Corduba (Córdoba),https://www.turismo-prerromanico.com/home-b__trashed-2__trashed-2__trashed-2-2-2/monumento/corduba-cordoba/,Corduba,37.8893025,-4.779275300000001
MONASTERIO DE GUARRAZAR,https://www.turismo-prerromanico.com/home-b__trashed-2__trashed-2__trashed-2-2-2/monumento/monasterio-de-guarrazar/,MONASTERIO DE GUARRAZAR,39.814739,-4.118818
CONJUNTO EPISCOPAL DE TARRASA,https://www.turismo-prerromanico.com/home-b__trashed-2__trashed-2__trashed-2-2-2/monumento/conjunto-episcopal-de-tarrasa-20130301101016/,CONJUNTO EPISCOPAL DE TARRASA,41.56314820000001,2.0054917
SANTA MARÍA DE TARRASA,https://www.turismo-prerromanico.com/home-b__trashed-2__trashed-2__trashed-2-2-2/monumento/santa-mara-de-tarrasa-20130301131256/,SANTA MARÍA DE TARRASA,41.5670926,2.0184159
SAN PEDRO DE TARRASA,https://www.turismo-prerromanico.com/home-b__trashed-2__trashed-2__trashed-2-2-2/monumento/san-pedro-de-tarrasa-20130302020157/,SAN PEDRO DE TARRASA,41.5670926,2.0184159
ERMITA DE SAN AMBROSIO,https://www.turismo-prerromanico.com/home-b__trashed-2__trashed-2__trashed-2-2-2/monumento/ermita-de-san-ambrosio/,ERMITA DE SAN AMBROSIO,36.2147785,-6.0025736
SANTAS CÉNTOLA Y ELENA,https://www.turismo-prerromanico.com/home-b__trashed-2__trashed-2__trashed-2-2-2/monumento/santas-cntola-y-elena-20130212144623/,SANTAS CÉNTOLA Y ELENA,42.77138799999999,-3.7664519
SAN PEDRO DE BALSEMAO,https://www.turismo-prerromanico.com/home-b__trashed-2__trashed-2__trashed-2-2-2/monumento/san-pedro-de-balsemao-20130303114346/,SAN PEDRO DE BALSEMAO,41.10699779999999,-7.783158899999999
MUSEO DE LOS CONCILIOS Y DE LA CULTURA VISIGODA,https://www.turismo-prerromanico.com/home-b__trashed-2__trashed-2__trashed-2-2-2/monumento/museo-de-los-concilios-y-de-la-cultura-visigoda-20151111114933/,MUSEO DE LOS CONCILIOS Y DE LA CULTURA VISIGODA,39.8584558,-4.0271249
MUSEO DE ARTE VISIGODO DE ARISGOTAS,https://www.turismo-prerromanico.com/home-b__trashed-2__trashed-2__trashed-2-2-2/monumento/museo-de-arte-visigodo-de-arisgotas-20160107130455/,MUSEO DE ARTE VISIGODO DE ARISGOTAS,39.6272226,-3.9408997
TESORO DE GUARRAZAR,https://www.turismo-prerromanico.com/home-b__trashed-2__trashed-2__trashed-2-2-2/monumento/tesoro-de-guarrazar-20160510213228/,TESORO DE GUARRAZAR,39.80381209999999,-4.1418393
MONASTERIO DE SAN JUAN DE LA HOZ EN CILLAPERLATA (R),https://www.turismo-prerromanico.com/home-b__trashed-2__trashed-2__trashed-2-2-2/monumento/monasterio-de-san-juan-de-la-hoz-en-cillaperlata-r/,MONASTERIO DE SAN JUAN DE LA HOZ EN CILLAPERLATA,42.7705533,-3.3617567
MONASTERIO COMPLUTENSE,https://www.turismo-prerromanico.com/home-b__trashed-2__trashed-2__trashed-2-2-2/monumento/monasterio-cumplutense/,MONASTERIO COMPLUTENSE,,
ASENTAMIENTO FORTIFICADO DE PUIG ROM,https://www.turismo-prerromanico.com/home-b__trashed-2__trashed-2__trashed-2-2-2/monumento/asentamiento-fortificado-de-puig-rom/,ASENTAMIENTO FORTIFICADO DE PUIG ROM,42.2500668,3.1895824
SAN VICENTE DEL VALLE,https://www.turismo-prerromanico.com/home-b__trashed-2__trashed-2__trashed-2-2-2/monumento/san-vicente-del-valle-20130212192444/,SAN VICENTE DEL VALLE,42.3371587,-3.1619652
ERMITA DE LOS SANTOS MARTIRES,https://www.turismo-prerromanico.com/home-b__trashed-2__trashed-2__trashed-2-2-2/monumento/ermita-de-los-santos-20130303113251/,ERMITA DE LOS SANTOS MARTIRES,36.4490968,-5.9316337
TESORO DE TORREDONJIMENO,https://www.turismo-prerromanico.com/home-b__trashed-2__trashed-2__trashed-2-2-2/monumento/tesoro-de-torredonjimeno-20160511115909/,TESORO DE TORREDONJIMENO,,
SAN JUAN DE BAÑOS,https://www.turismo-prerromanico.com/home-b__trashed-2__trashed-2__trashed-2-2-2/monumento/san-juan-de-baos-20130213172605/,SAN JUAN DE BAÑOS,41.9208074,-4.4722455
SAN FRUCTUOSO DE MONTELIOS,https://www.turismo-prerromanico.com/home-b__trashed-2__trashed-2__trashed-2-2-2/monumento/san-fructuoso-de-montelios-20130219134810/,SAN FRUCTUOSO DE MONTELIOS,41.560274,-8.438835899999999
Ermita de la Virgen del Val,https://www.turismo-prerromanico.com/home-b__trashed-2__trashed-2__trashed-2-2-2/monumento/virgen-del-val-20130303115019/,Ermita de la Virgen del Val,40.4842211,-3.3399975
LOS HITOS DE ARISGOTAS,https://www.turismo-prerromanico.com/home-b__trashed-2__trashed-2__trashed-2-2-2/monumento/los-hitos-de-arisgotas-20151104120010/,LOS HITOS DE ARISGOTAS,39.6484617,-3.8817742
SANTA LUCIA DEL TRAMPAL,https://www.turismo-prerromanico.com/home-b__trashed-2__trashed-2__trashed-2-2-2/monumento/santa-lucia-del-trampal-20130215012346/,SANTA LUCIA DEL TRAMPAL,39.153451,-6.2217483
SANTA COMBA DE BANDE,https://www.turismo-prerromanico.com/home-b__trashed-2__trashed-2__trashed-2-2-2/monumento/santa-comba-de-bande-20130220015418/,SANTA COMBA DE BANDE,41.9734674,-8.0015862
CRIPTA DE SAN ANTOLIN,https://www.turismo-prerromanico.com/home-b__trashed-2__trashed-2__trashed-2-2-2/monumento/cripta-de-san-antolin-20130214180945/,CRIPTA DE SAN ANTOLIN,42.0113738,-4.5371326
SAN PEDRO DE LA MATA,https://www.turismo-prerromanico.com/home-b__trashed-2__trashed-2__trashed-2-2-2/monumento/san-pedro-de-la-mata-20130222204031/,SAN PEDRO DE LA MATA,39.6136846,-3.9870109
IGLESIA DE VALDECEBADAR,https://www.turismo-prerromanico.com/home-b__trashed-2__trashed-2__trashed-2-2-2/monumento/iglesia-de-valdecebadar-20130226141622/,IGLESIA DE VALDECEBADAR,38.7396371,-7.087997799999999
IGLESIA DE LAS TAPIAS,https://www.turismo-prerromanico.com/home-b__trashed-2__trashed-2__trashed-2-2-2/monumento/iglesia-de-las-tapias-20130303115905/,IGLESIA DE LAS TAPIAS,8.2043071,-71.83932039999999
SAN GIAO DE NAZARÉ,https://www.turismo-prerromanico.com/home-b__trashed-2__trashed-2__trashed-2-2-2/monumento/san-giao-de-nazar-20130301013022/,SAN GIAO DE NAZARÉ,32.699635,35.303546
SAN PEDRO DE LA NAVE,https://www.turismo-prerromanico.com/home-b__trashed-2__trashed-2__trashed-2-2-2/monumento/san-pedro-de-la-nave-20130227012059/,SAN PEDRO DE LA NAVE,41.5832,-5.964102
SAN MIGUEL DE TARRASA,https://www.turismo-prerromanico.com/home-b__trashed-2__trashed-2__trashed-2-2-2/monumento/20130302121748/,SAN MIGUEL DE TARRASA,41.56314820000001,2.0054917
ERMITA DE SANTA CRUZ DE MONTES,https://www.turismo-prerromanico.com/home-b__trashed-2__trashed-2__trashed-2-2-2/monumento/santa-cruz-de-montes-20130408132701/,ERMITA DE SANTA CRUZ DE MONTES,42.5822043,-6.312638799999999
ARCO DE SAN JUÁN DE PANJÓN,https://www.turismo-prerromanico.com/home-b__trashed-2__trashed-2__trashed-2-2-2/monumento/arco-de-san-juan-de-panjon/,ARCO DE SAN JUÁN DE PANJÓN,42.1459839,-8.8231529
IGLESIA Y NECRÓPOLIS DE SAN MARTÍN DE FINAGA (R),https://www.turismo-prerromanico.com/home-b__trashed-2__trashed-2__trashed-2-2-2/monumento/iglesia-y-necropolis-de-san-martin-de-finaga-r/,IGLESIA Y NECRÓPOLIS DE SAN MARTÍN DE FINAGA,43.2196242,-2.896734
QUINTANILLA DE LAS VIÑAS,https://www.turismo-prerromanico.com/home-b__trashed-2__trashed-2__trashed-2-2-2/monumento/santa-mara-de-quintanilla-de-las-vias-20130227140221/,QUINTANILLA DE LAS VIÑAS,42.1246876,-3.4810821
PLA DE NADAL,https://www.turismo-prerromanico.com/home-b__trashed-2__trashed-2__trashed-2-2-2/monumento/pla-de-nadal-20160317201337/,PLA DE NADAL,39.5462772,-0.5795627
SANTA MARIA DE MELQUE,https://www.turismo-prerromanico.com/home-b__trashed-2__trashed-2__trashed-2-2-2/monumento/santa-maria-de-melque-20130226181456/,SANTA MARIA DE MELQUE,39.7506469,-4.373213
SAN PEDRO DE MONTES,https://www.turismo-prerromanico.com/home-b__trashed-2__trashed-2__trashed-2-2-2/monumento/san-pedro-de-montes/,SAN PEDRO DE MONTES,42.4460523,-6.570532999999999
Ermita de Santa Cruz,https://www.turismo-prerromanico.com/home-b__trashed-2__trashed-2__trashed-2-2-2/monumento/ermita-de-santa-cruz-20130116122353/,Ermita de Santa Cruz,38.3478235,-0.4832320999999999
SAN JUAN DE ESPIERRE (R),https://www.turismo-prerromanico.com/home-b__trashed-2__trashed-2__trashed-2-2-2/monumento/san-juan-de-espierre-20140201172618/,SAN JUAN DE ESPIERRE,,
SANTA MARÍA DE ESPIERRE (R),https://www.turismo-prerromanico.com/home-b__trashed-2__trashed-2__trashed-2-2-2/monumento/msmespierre-20140201174506/,SANTA MARÍA DE ESPIERRE,,
MONASTERIO DE ARRASUL (R),https://www.turismo-prerromanico.com/home-b__trashed-2__trashed-2__trashed-2-2-2/monumento/monasterio-de-arrasul-20140201180227/,MONASTERIO DE ARRASUL,42.5944531,-0.3953404
SAN ÚRBEZ DE NOCITO,https://www.turismo-prerromanico.com/home-b__trashed-2__trashed-2__trashed-2-2-2/monumento/san-rbez-de-nocito-20140201213126/,SAN ÚRBEZ DE NOCITO,42.3212836,-0.2534963
SANTIANES DE PRAVIA,https://www.turismo-prerromanico.com/home-b__trashed-2__trashed-2__trashed-2-2-2/monumento/santianes-de-pravia-20130114172929/,SANTIANES DE PRAVIA,43.5139109,-6.1002508
CASTILLETE DE MONTE HOZARCO,https://www.turismo-prerromanico.com/home-b__trashed-2__trashed-2__trashed-2-2-2/monumento/castillete-de-monte-hozarco-20150709115243/,CASTILLETE DE MONTE HOZARCO,43.24064250000001,-4.57294
IGLESIA DE SAN TIRSO,https://www.turismo-prerromanico.com/home-b__trashed-2__trashed-2__trashed-2-2-2/monumento/san-tirso-20130116122834/,IGLESIA DE SAN TIRSO,42.37087469999999,-5.032422899999999
CÁMARA SANTA DE OVIEDO,https://www.turismo-prerromanico.com/home-b__trashed-2__trashed-2__trashed-2-2-2/monumento/cmara-santa-de-la-catedral-de-oviedo-20130114190848/,CÁMARA SANTA DE OVIEDO,43.3624226,-5.842781599999999
SANTA MARIA DE BENDONES,https://www.turismo-prerromanico.com/home-b__trashed-2__trashed-2__trashed-2-2-2/monumento/santa-maria-de-bendones-20130115110107/,SANTA MARIA DE BENDONES,43.3363137,-5.8064281
SAN JULIÁN DE LOS PRADOS,https://www.turismo-prerromanico.com/home-b__trashed-2__trashed-2__trashed-2-2-2/monumento/san-julin-de-los-prados-20130115114536/,SAN JULIÁN DE LOS PRADOS,43.3677179,-5.8372321
FUENTE DE LA FONCALADA,https://www.turismo-prerromanico.com/home-b__trashed-2__trashed-2__trashed-2-2-2/monumento/fuente-de-la-foncalada-20130116121817/,FUENTE DE LA FONCALADA,43.365289,-5.846013699999999
SAN PEDRO DE NORA,https://www.turismo-prerromanico.com/home-b__trashed-2__trashed-2__trashed-2-2-2/monumento/san-pedro-de-nora-20130115183122/,SAN PEDRO DE NORA,43.3662213,-5.957916500000001
SANTA CRISTINA DE LENA,https://www.turismo-prerromanico.com/home-b__trashed-2__trashed-2__trashed-2-2-2/monumento/santa-cristina-de-lena-20130115222639/,SANTA CRISTINA DE LENA,43.1285759,-5.8131448
SANTA MARIA DEL NARANCO,https://www.turismo-prerromanico.com/home-b__trashed-2__trashed-2__trashed-2-2-2/monumento/santa-maria-del-naranco-20130115191257/,SANTA MARIA DEL NARANCO,43.3790662,-5.8659839
SAN MIGUEL DE LILLO,https://www.turismo-prerromanico.com/home-b__trashed-2__trashed-2__trashed-2-2-2/monumento/san-miguel-de-lillo-20130115201249/,SAN MIGUEL DE LILLO,43.3803118,-5.8684143
SAN MIGUEL DE CUXÁ (R),https://www.turismo-prerromanico.com/home-b__trashed-2__trashed-2__trashed-2-2-2/monumento/san-miguel-cuxa-r/,SAN MIGUEL DE CUXÁ,42.5948314,2.4171516
SANTA MARÍA DE MARQUET O DE MATADARS,https://www.turismo-prerromanico.com/home-b__trashed-2__trashed-2__trashed-2-2-2/monumento/santa-mar-a-de-marquet-20130616203956/,SANTA MARÍA DE MARQUET O DE MATADARS,41.69286169999999,1.872993
SANTIAGO DE GOBIENDES,https://www.turismo-prerromanico.com/home-b__trashed-2__trashed-2__trashed-2-2-2/monumento/santiago-de-gobiendes-20130116113512/,SANTIAGO DE GOBIENDES,43.4693133,-5.2321749
SANTA MARIA DE TABARA,https://www.turismo-prerromanico.com/home-b__trashed-2__trashed-2__trashed-2-2-2/monumento/santa-maria-de-tabara/,SANTA MARIA DE TABARA,41.8267071,-5.9579945
SAN ADRIANO DE TUÑÓN,https://www.turismo-prerromanico.com/home-b__trashed-2__trashed-2__trashed-2-2-2/monumento/san-adriano-de-tun-20130116014524/,SAN ADRIANO DE TUÑÓN,43.2918498,-5.981488
SAN SALVADOR DE VALDEDIÓS,https://www.turismo-prerromanico.com/home-b__trashed-2__trashed-2__trashed-2-2-2/monumento/san-salvador-de-valdedis-20130116021900/,SAN SALVADOR DE VALDEDIÓS,43.4370777,-5.5065235
CIUDAD DE BOBASTRO,https://www.turismo-prerromanico.com/home-b__trashed-2__trashed-2__trashed-2-2-2/monumento/ciudad-de-bobastro/,CIUDAD DE BOBASTRO,36.8996569,-4.7804797
LAS IGLESIAS DE BOBASTRO,https://www.turismo-prerromanico.com/home-b__trashed-2__trashed-2__trashed-2-2-2/monumento/las-iglesias-de-bobastro/,LAS IGLESIAS DE BOBASTRO,36.8996569,-4.7804797
ERMITA DE SAN AVENTÍN DE BONANSA (R),https://www.turismo-prerromanico.com/home-b__trashed-2__trashed-2__trashed-2-2-2/monumento/ermita-de-san-aventin-de-bonansa-r/,ERMITA DE SAN AVENTÍN DE BONANSA,42.4283156,0.6701981
SAN SALVADOR DE PRIESCA,https://www.turismo-prerromanico.com/home-b__trashed-2__trashed-2__trashed-2-2-2/monumento/san-salvador-de-priesca-20130116115217/,SAN SALVADOR DE PRIESCA,43.48540020000001,-5.3590491
ERMITA DE LA VIRGEN DEL CERRO,https://www.turismo-prerromanico.com/home-b__trashed-2__trashed-2__trashed-2-2-2/monumento/ermita-de-la-virgen-del-cerro-20130116142404/,ERMITA DE LA VIRGEN DEL CERRO,42.2813978,-3.5370937
BASÍLICA DE BOBASTRO,https://www.turismo-prerromanico.com/home-b__trashed-2__trashed-2__trashed-2-2-2/monumento/baslica-de-bobastro-20130402161249/,BASÍLICA DE BOBASTRO,36.8996569,-4.7804797
ERMITA DE SANTA CECILIA,https://www.turismo-prerromanico.com/home-b__trashed-2__trashed-2__trashed-2-2-2/monumento/ermita-de-santa-cecilia-20130421130412/,ERMITA DE SANTA CECILIA,42.7743956,-4.3677544
SAN JULIÁN DE BOADA,https://www.turismo-prerromanico.com/home-b__trashed-2__trashed-2__trashed-2-2-2/monumento/san-juli-de-boada-20130616111152/,SAN JULIÁN DE BOADA,41.9854639,3.121203
SANTA MARGARIDA DEL CAIRAT,https://www.turismo-prerromanico.com/home-b__trashed-2__trashed-2__trashed-2-2-2/monumento/santa-margarida-del-cairat-20130616121128/,SANTA MARGARIDA DEL CAIRAT,41.5679037,1.8661972
Ermita de Sant Hilari,https://www.turismo-prerromanico.com/home-b__trashed-2__trashed-2__trashed-2-2-2/monumento/ermita-de-sant-hilari-20130616201633/,Ermita de Sant Hilari,41.6686942,2.350052
ERMITA DE SAN MARTÍN DE LA NAVA (R),https://www.turismo-prerromanico.com/home-b__trashed-2__trashed-2__trashed-2-2-2/monumento/ermita-de-san-martin-de-la-nava-r/,ERMITA DE SAN MARTÍN DE LA NAVA,42.575834,-2.7559976
HORREO DE IRACHETA (R),https://www.turismo-prerromanico.com/home-b__trashed-2__trashed-2__trashed-2-2-2/monumento/hrreo-de-iracheta-20130220134545/,HORREO DE IRACHETA,42.6377879,-1.5476879
SAN ROMÁN DE HORNIJA,https://www.turismo-prerromanico.com/home-b__trashed-2__trashed-2__trashed-2-2-2/monumento/san-romn-de-hornija-20130417123324/,SAN ROMÁN DE HORNIJA,41.480658,-5.2847709
ERMITA DE SANTA APOLONIA EN PECHARROMÁN (R),https://www.turismo-prerromanico.com/home-b__trashed-2__trashed-2__trashed-2-2-2/monumento/ermita-de-santa-apolonia-en-pecharroman/,ERMITA DE SANTA APOLONIA EN PECHARROMÁN,41.4787174,-3.9519789
San Pedro de Lourosa,https://www.turismo-prerromanico.com/home-b__trashed-2__trashed-2__trashed-2-2-2/monumento/san-pedro-de-lourosa-20130421120610/,San Pedro de Lourosa,40.9881883,-8.5450532
SAN PELAYO O SAN PEDRO EL VIEJO DE ARLANZA (R),https://www.turismo-prerromanico.com/home-b__trashed-2__trashed-2__trashed-2-2-2/monumento/san-pelayo-o-san-pedro-el-viejo-de-arlanza-r/,SAN PELAYO O SAN PEDRO EL VIEJO DE ARLANZA,42.0937118,-3.8248241
SAN MIGUEL DE ESCALADA,https://www.turismo-prerromanico.com/home-b__trashed-2__trashed-2__trashed-2-2-2/monumento/san-miguel-de-escalada-20130403144254/,SAN MIGUEL DE ESCALADA,42.5712708,-5.3028875
SANTA MARÍA DE WAMBA,https://www.turismo-prerromanico.com/home-b__trashed-2__trashed-2__trashed-2-2-2/monumento/santa-mara-de-wamba-20130411152814/,SANTA MARÍA DE WAMBA,41.6749687,-4.9175686
SAN CEBRIÁN DE MAZOTE,https://www.turismo-prerromanico.com/home-b__trashed-2__trashed-2__trashed-2-2-2/monumento/san-cebrin-de-mazote-20130416115011/,SAN CEBRIÁN DE MAZOTE,41.6797566,-5.1490712
SAN GINÉS DE FRANCELOS,https://www.turismo-prerromanico.com/home-b__trashed-2__trashed-2__trashed-2-2-2/monumento/san-gins-de-francelos-20130116121337/,SAN GINÉS DE FRANCELOS,42.277323,-8.1577554
SAN SALVADOR DE PALAT DEL REY,https://www.turismo-prerromanico.com/home-b__trashed-2__trashed-2__trashed-2-2-2/monumento/san-salvador-de-palat-del-rey-20130410141543/,SAN SALVADOR DE PALAT DEL REY,42.5977778,-5.568144500000001
SANT QUIRZE DE PEDRET,https://www.turismo-prerromanico.com/home-b__trashed-2__trashed-2__trashed-2-2-2/monumento/san-quirce-de-pedret-20130616174709/,SANT QUIRZE DE PEDRET,42.1074712,1.883649
ERMITA DEL SANTO CRISTO DE SAN SEBASTIÁN EN CORUÑA DEL CONDE (R),https://www.turismo-prerromanico.com/home-b__trashed-2__trashed-2__trashed-2-2-2/monumento/ermita-del-santo-cristo-de-san-sebastian-en-coruna-del-conde-r/,ERMITA DEL SANTO CRISTO DE SAN SEBASTIÁN EN CORUÑA DEL CONDE,41.76329,-3.39665
SANTA MARÍA DE LEBEÑA,https://www.turismo-prerromanico.com/home-b__trashed-2__trashed-2__trashed-2-2-2/monumento/santa-mara-de-lebea-20130417150950/,SANTA MARÍA DE LEBEÑA,43.2153394,-4.5905387
SAN PEDRO DE ANSEMIL (R),https://www.turismo-prerromanico.com/home-b__trashed-2__trashed-2__trashed-2-2-2/monumento/san-pedro-de-ansemil-20140426195312/,SAN PEDRO DE ANSEMIL,42.7413782,-8.267184499999999
SAN MARTIN DE ALBELDA (R),https://www.turismo-prerromanico.com/home-b__trashed-2__trashed-2__trashed-2-2-2/monumento/san-martin-de-albelda-r/,SAN MARTIN DE ALBELDA,42.3571083,-2.4751826
ALCALÁ DE MONCAYO (R),https://www.turismo-prerromanico.com/home-b__trashed-2__trashed-2__trashed-2-2-2/monumento/alcal-de-moncayo-20160509203538/,ALCALÁ DE MONCAYO,41.7861005,-1.6961168
SANTIAGO DE PEÑALBA,https://www.turismo-prerromanico.com/home-b__trashed-2__trashed-2__trashed-2-2-2/monumento/santiago-de-pealba-20130417131219/,SANTIAGO DE PEÑALBA,42.4273689,-6.5406466
SAN ROMÁN DE MOROSO,https://www.turismo-prerromanico.com/home-b__trashed-2__trashed-2__trashed-2-2-2/monumento/san-romn-de-moroso-20130608122958/,SAN ROMÁN DE MOROSO,43.2197027,-4.055280499999999
SAN MILLÁN DE SUSO,https://www.turismo-prerromanico.com/home-b__trashed-2__trashed-2__trashed-2-2-2/monumento/san-milln-de-suso-20130609021808/,SAN MILLÁN DE SUSO,42.3293721,-2.8726968
SANTA EUFEMIA DE AMBÍA,https://www.turismo-prerromanico.com/home-b__trashed-2__trashed-2__trashed-2-2-2/monumento/santa-eufemia-de-amb-a-20130520162427/,SANTA EUFEMIA DE AMBÍA,42.9889617,-7.787348299999999
SANTA MARÍA DE PEÑALBA (R),https://www.turismo-prerromanico.com/home-b__trashed-2__trashed-2__trashed-2-2-2/monumento/santa-mar-a-de-pealba-20130612015402/,SANTA MARÍA DE PEÑALBA,41.53698240000001,-3.2615058
SAN MIGUEL DE CELANOVA,https://www.turismo-prerromanico.com/home-b__trashed-2__trashed-2__trashed-2-2-2/monumento/san-miguel-de-celanova-20130506124255/,SAN MIGUEL DE CELANOVA,42.151667,-7.956944000000001
SAN MARTIÑO DE PAZÓ,https://www.turismo-prerromanico.com/home-b__trashed-2__trashed-2__trashed-2-2-2/monumento/san-martio-de-pazo-20130520144332/,SAN MARTIÑO DE PAZÓ,42.1743111,-7.8320173
SANTA MARÍA DE MIXÓS,https://www.turismo-prerromanico.com/home-b__trashed-2__trashed-2__trashed-2-2-2/monumento/santa-mara-de-mixs-20130606141208/,SANTA MARÍA DE MIXÓS,41.9624007,-7.454426199999999
MONASTERIO DE SANT FELIU DE GUÍXOLS – PORTA FERRADA,https://www.turismo-prerromanico.com/home-b__trashed-2__trashed-2__trashed-2-2-2/monumento/porta-ferrada-20130614175752/,MONASTERIO DE SANT FELIU DE GUÍXOLS PORTA FERRADA,41.7802162,3.0267086
TORREON DE DOÑA URRACA,https://www.turismo-prerromanico.com/home-b__trashed-2__trashed-2__trashed-2-2-2/monumento/torre-de-doa-urraca-20130609012945/,TORREON DE DOÑA URRACA,42.0584026,-3.5196641
SANT MARTÍ DE BAUSSITGES,https://www.turismo-prerromanico.com/home-b__trashed-2__trashed-2__trashed-2-2-2/monumento/sant-mart-de-baussitges-20150309200834/,SANT MARTÍ DE BAUSSITGES,42.4499064,3.0042309
MONASTERIO DE VALERANICA (R),https://www.turismo-prerromanico.com/home-b__trashed-2__trashed-2__trashed-2-2-2/monumento/mmvalera-20130608202855/,MONASTERIO DE VALERANICA,42.0313601,-3.8874342
SANTA MARIA DE RETORTILLO (R),https://www.turismo-prerromanico.com/home-b__trashed-2__trashed-2__trashed-2-2-2/monumento/santa-mar-a-de-retortillo-20130608204922/,SANTA MARIA DE RETORTILLO,42.985628,-4.1135906
SAN VICENTE DE OBIOLS,https://www.turismo-prerromanico.com/home-b__trashed-2__trashed-2__trashed-2-2-2/monumento/san-vicent-de-obiols-20130616190046/,SAN VICENTE DE OBIOLS,42.061192,1.8665085
SANT ROMÀ DE LES ARENES O SIDILLÀ,https://www.turismo-prerromanico.com/home-b__trashed-2__trashed-2__trashed-2-2-2/monumento/iglesia-de-sant-rom-de-les-arenes-o-sidill-20150322184407/,SANT ROMÀ DE LES ARENES O SIDILLÀ,,
"CAPILLA DEL SALVADOR, SAMOS (R)",https://www.turismo-prerromanico.com/home-b__trashed-2__trashed-2__trashed-2-2-2/monumento/capilla-del-salvador-samos-r/,CAPILLA DEL SALVADOR SAMOS,38.0079897,-3.3667641
ERMITA DE SAN PEDRO DE ABRISQUETA (R),https://www.turismo-prerromanico.com/home-b__trashed-2__trashed-2__trashed-2-2-2/monumento/ermita-de-san-pedro-de-abrisqueta-r/,ERMITA DE SAN PEDRO DE ABRISQUETA,43.2104827,-2.909377
SANTA LEOCADIA DE HELGUERA (R),https://www.turismo-prerromanico.com/home-b__trashed-2__trashed-2__trashed-2-2-2/monumento/santa-leocadia-de-helguera-20130411125020/,SANTA LEOCADIA DE HELGUERA,43.1571367,-4.0345084
San Salvador de Toral de Merayo,https://www.turismo-prerromanico.com/home-b__trashed-2__trashed-2__trashed-2-2-2/monumento/san-salvador-de-toral-de-merayo-20130614020056/,San Salvador de Toral de Merayo,42.5236167,-6.6364214
MONASTERIO DE SANTA MARÍA DE SERRATEIX,https://www.turismo-prerromanico.com/home-b__trashed-2__trashed-2__trashed-2-2-2/monumento/monasterio-de-santa-maria-de-serrateix/,MONASTERIO DE SANTA MARÍA DE SERRATEIX,41.9463347,1.7765892
CRIPTA DE SAN PELAY (R),https://www.turismo-prerromanico.com/home-b__trashed-2__trashed-2__trashed-2-2-2/monumento/cripta-de-san-pelay-20140201180842/,CRIPTA DE SAN PELAY,42.6114177,-0.3023591
SAN LORENZO DE CORTINA,https://www.turismo-prerromanico.com/home-b__trashed-2__trashed-2__trashed-2-2-2/monumento/san-lorenzo-de-cortina-20150715133235/,SAN LORENZO DE CORTINA,43.5506788,-5.8957552
SAN SALVADOR DE SOUTOMERILLE (R),https://www.turismo-prerromanico.com/home-b__trashed-2__trashed-2__trashed-2-2-2/monumento/san-salvador-de-soutomerille-r/,SAN SALVADOR DE SOUTOMERILLE,43.0175458,-7.397162199999999
SAN ESTEBAN DE VIGUERA (R),https://www.turismo-prerromanico.com/home-b__trashed-2__trashed-2__trashed-2-2-2/monumento/san-esteban-de-viguera-20130612021041/,SAN ESTEBAN DE VIGUERA,42.314158,-2.545877
SAN BARTOLOMÉ DE GAVÍN (R),https://www.turismo-prerromanico.com/home-b__trashed-2__trashed-2__trashed-2-2-2/monumento/san-bartolomc-de-gav-n-20140203173342/,SAN BARTOLOMÉ DE GAVÍN,42.6280536,-0.2726228
ERMITA DE NUESTRA SEÑORA DE SESCÚN (R),https://www.turismo-prerromanico.com/home-b__trashed-2__trashed-2__trashed-2-2-2/monumento/ermita-de-la-virgen-sescn-20140204230720/,ERMITA DE NUESTRA SEÑORA DE SESCÚN,42.2120117,-0.2947436
SAN BARTOLOMÉ DE BERGUA (R),https://www.turismo-prerromanico.com/home-b__trashed-2__trashed-2__trashed-2-2-2/monumento/san-bartolome-de-bergua-r/,SAN BARTOLOMÉ DE BERGUA,42.5330576,-0.1711542
MONASTERIO DE SAN PELAY (R),https://www.turismo-prerromanico.com/home-b__trashed-2__trashed-2__trashed-2-2-2/monumento/monasterio-de-san-pelay-20140205002626/,MONASTERIO DE SAN PELAY,42.6114177,-0.3023591
SAN BAUDELIO DE BERLANGA,https://www.turismo-prerromanico.com/home-b__trashed-2__trashed-2__trashed-2-2-2/monumento/san-baudelio-de-berlanga-20130612223620/,SAN BAUDELIO DE BERLANGA,41.4181818,-2.7900173
SANTO TOMAS DE LAS OLLAS,https://www.turismo-prerromanico.com/home-b__trashed-2__trashed-2__trashed-2-2-2/monumento/mstollas-20130614122125/,SANTO TOMAS DE LAS OLLAS,42.5552941,-6.5793396
SAN MIGUEL DE GORMAZ (R),https://www.turismo-prerromanico.com/home-b__trashed-2__trashed-2__trashed-2-2-2/monumento/san-migue-de-gormaz-20130616104243/,SAN MIGUEL DE GORMAZ,41.4910108,-3.0102663
VIRGEN DE IZARBE (R),https://www.turismo-prerromanico.com/home-b__trashed-2__trashed-2__trashed-2-2-2/monumento/virgen-de-izarbe-20140205001606/,VIRGEN DE IZARBE,42.41793879999999,-0.6442622
SAN MIGUEL DE BARBENUTA (R),https://www.turismo-prerromanico.com/home-b__trashed-2__trashed-2__trashed-2-2-2/monumento/san-mart-n-de-barbenuta-20140201181421/,SAN MIGUEL DE BARBENUTA,42.5969039,-0.2962746
SAN MARTÍN DE ARTO (R),https://www.turismo-prerromanico.com/home-b__trashed-2__trashed-2__trashed-2-2-2/monumento/san-mart-n-de-arto-20140204232001/,SAN MARTÍN DE ARTO,42.4516038,-0.4138741
VIRGEN DE ORDÁS (R),https://www.turismo-prerromanico.com/home-b__trashed-2__trashed-2__trashed-2-2-2/monumento/virgen-de-ords-20140201214534/,VIRGEN DE ORDÁS,42.28556030000001,-0.4171119
SAN MARTÍN DE ORDOVÉS (R),https://www.turismo-prerromanico.com/home-b__trashed-2__trashed-2__trashed-2-2-2/monumento/san-mart-n-de-ordovcs-20140205000754/,SAN MARTÍN DE ORDOVÉS,42.4036059,-0.3460077
SANTA EULALIA DE SUSÍN (R),https://www.turismo-prerromanico.com/home-b__trashed-2__trashed-2__trashed-2-2-2/monumento/santa-eulalia-de-sus-n-20140203180321/,SANTA EULALIA DE SUSÍN,42.5684157,-0.2922186
ERMITA CASTRENSE DE SAN JUAN DE ESCANILLA,https://www.turismo-prerromanico.com/home-b__trashed-2__trashed-2__trashed-2-2-2/monumento/ermita-castrense-de-san-juan-de-escanilla/,ERMITA CASTRENSE DE SAN JUAN DE ESCANILLA,42.2659559,0.2027671
SAN BARTOLOMÉ DE LARROSA DE GARCIPOLLERA (R),https://www.turismo-prerromanico.com/home-b__trashed-2__trashed-2__trashed-2-2-2/monumento/san-bartolome-de-larrosa-de-garcipollera-r/,SAN BARTOLOMÉ DE LARROSA DE GARCIPOLLERA,,
SANTIAGO DE ARRUABA (R),https://www.turismo-prerromanico.com/home-b__trashed-2__trashed-2__trashed-2-2-2/monumento/santiago-de-arruaba-20140207181043/,SANTIAGO DE ARRUABA,43.5299026,-6.555575999999999
IGLESIA DE BARA (R),https://www.turismo-prerromanico.com/home-b__trashed-2__trashed-2__trashed-2-2-2/monumento/iglesia-de-bara-20140207181851/,IGLESIA DE BARA,42.3314809,-0.1249762
STA. EULALIA DE ORÓS BAJO (R),https://www.turismo-prerromanico.com/home-b__trashed-2__trashed-2__trashed-2-2-2/monumento/sta-eulalia-de-ors-bajo-20140204235642/,STA EULALIA DE ORÓS BAJO,42.59235109999999,-0.3102996
IGLESIA DE BENTUÉ (R),https://www.turismo-prerromanico.com/home-b__trashed-2__trashed-2__trashed-2-2-2/monumento/iglesia-de-bentuc-20140207184027/,IGLESIA DE BENTUÉ,42.3354548,-0.5177278
SAN PEDRO DE LÁRREDE (R),https://www.turismo-prerromanico.com/home-b__trashed-2__trashed-2__trashed-2-2-2/monumento/san-pedro-de-lrrede-20140201215957/,SAN PEDRO DE LÁRREDE,42.5528989,-0.3166897
SAN ANDRÉS DE SATUÉ  (R),https://www.turismo-prerromanico.com/home-b__trashed-2__trashed-2__trashed-2-2-2/monumento/san-andrcs-de-satuc-20140203181737/,SAN ANDRÉS DE SATUÉ,42.5293091,-0.3170294
SAN ÚRBEZ DE BASARÁN (R),https://www.turismo-prerromanico.com/home-b__trashed-2__trashed-2__trashed-2-2-2/monumento/san-urbez-de-basarn-20140203181012/,SAN ÚRBEZ DE BASARÁN,42.5598883,0.0514419999999999
SAN MARTIN DE OLIVAN (R),https://www.turismo-prerromanico.com/home-b__trashed-2__trashed-2__trashed-2-2-2/monumento/san-mar-n-de-olivn-20140203200933/,SAN MARTIN DE OLIVAN,42.57577269999999,-0.3027179
SANTA MARÍA DE ISUN DE BASA (R),https://www.turismo-prerromanico.com/home-b__trashed-2__trashed-2__trashed-2-2-2/monumento/santa-mar-a-de-isun-de-basa-20140203201918/,SANTA MARÍA DE ISUN DE BASA,42.5111698,-0.3096785
SAN JUAN DE BUSA  (R),https://www.turismo-prerromanico.com/home-b__trashed-2__trashed-2__trashed-2-2-2/monumento/san-juan-de-busa-20140203175215/,SAN JUAN DE BUSA,42.564609,-0.3128518
SAN JUAN BAUTISTA DE RASAL (R),https://www.turismo-prerromanico.com/home-b__trashed-2__trashed-2__trashed-2-2-2/monumento/san-juan-bautista-de-rasal-20140203203044/,SAN JUAN BAUTISTA DE RASAL,42.375016,-0.6001763999999999
SAN PEDRO DE LASIESO (R),https://www.turismo-prerromanico.com/home-b__trashed-2__trashed-2__trashed-2-2-2/monumento/san-pedro-de-lasieso-20140204232537/,SAN PEDRO DE LASIESO,42.423248,-0.4375777
SAN RAMÓN DE BELARRA (R),https://www.turismo-prerromanico.com/home-b__trashed-2__trashed-2__trashed-2-2-2/monumento/san-ramn-de-belarra-20140207183038/,SAN RAMÓN DE BELARRA,10.0910284,-84.4703933
SAN FÉLIX DE RAPÚN (R),https://www.turismo-prerromanico.com/home-b__trashed-2__trashed-2__trashed-2-2-2/monumento/san-fclix-de-rapn-20140207185518/,SAN FÉLIX DE RAPÚN,42.4916906,-0.3826532
Nª SRA. DE LOS ÁNGELES DE ARBANIÉS (R),https://www.turismo-prerromanico.com/home-b__trashed-2__trashed-2__trashed-2-2-2/monumento/n-sra-de-los-ngeles-de-arbanics-20140207190704/,Nª SRA DE LOS ÁNGELES DE ARBANIÉS,42.1622494,-0.2488031
Nª SRA. DE BASCUÉS (CASBAS) (R),https://www.turismo-prerromanico.com/home-b__trashed-2__trashed-2__trashed-2-2-2/monumento/n-sra-de-bascucs-casbas-20140207191346/,Nª SRA DE BASCUÉS,42.1419729,-0.1571302
SAN PEDRO DE NOCITO (R),https://www.turismo-prerromanico.com/home-b__trashed-2__trashed-2__trashed-2-2-2/monumento/san-pedro-de-nocito-20140208141815/,SAN PEDRO DE NOCITO,42.3223721,-0.2536062
VIRGEN DE FABANA (PANZANO) (R),https://www.turismo-prerromanico.com/home-b__trashed-2__trashed-2__trashed-2-2-2/monumento/virgen-de-fabana-panzano-20140208143233/,VIRGEN DE FABANA,,
PARROQUIAL DE ARGUIS (R),https://www.turismo-prerromanico.com/home-b__trashed-2__trashed-2__trashed-2-2-2/monumento/parroquial-de-arguis-20140208191612/,PARROQUIAL DE ARGUIS,42.3148776,-0.4390353
SAN FRUCTUOSO DE BARÓS (R),https://www.turismo-prerromanico.com/home-b__trashed-2__trashed-2__trashed-2-2-2/monumento/san-fructuoso-de-baros-r/,SAN FRUCTUOSO DE BARÓS,42.546022,-0.5263677
SAN VICENTE MARTIR DE VIO,https://www.turismo-prerromanico.com/home-b__trashed-2__trashed-2__trashed-2-2-2/monumento/san-vicente-martir-de-vio/,SAN VICENTE MARTIR DE VIO,40.7581357,-74.418944
